[
  {
    "IATA Code": "AGU",
    "Airport Name": "Lic. Jesús Terán Peredo Int'l Airport",
    "City": "Aguascalientes",
    "State": "Aguascalientes",
    "Airport Address": "Carretera Panamericana KM 22, Aguascalientes, AGS, MX",
    "Latitude": 21.7056,
    "Longitude": -102.318,
    "Region": null,
    "Country": "Mexico",
    "ICAO Code": "MMAS",
    "Flight Type": "International",
    "Nonstop": false,
    "State Abbreviation": null
  },
  {
    "IATA Code": "ATL",
    "Airport Name": "Hartsfield-Jackson Atlanta International Airport",
    "City": "Atlanta",
    "State": "Georgia",
    "Airport Address": "6000 N Terminal Pkwy, Atlanta, GA 30320",
    "Latitude": 33.6407,
    "Longitude": -84.4277,
    "Region": "South",
    "Country": "United States",
    "ICAO Code": "KATL",
    "Flight Type": "Domestic",
    "Nonstop": true,
    "State Abbreviation": "GA"
  },
  {
    "IATA Code": "AUA",
    "Airport Name": "Queen Beatrix International Airport",
    "City": "Oranjestad",
    "State": "Aruba",
    "Airport Address": "Sabana Berde 75, Oranjestad, Aruba",
    "Latitude": 12.5014,
    "Longitude": -70.0152,
    "Region": null,
    "Country": "Aruba",
    "ICAO Code": "TNCA",
    "Flight Type": "International",
    "Nonstop": true,
    "State Abbreviation": null
  },
  {
    "IATA Code": "AUS",
    "Airport Name": "Austin–Bergstrom International Airport",
    "City": "Austin",
    "State": "Texas",
    "Airport Address": "3600 Presidential Blvd, Austin, TX 78719",
    "Latitude": 30.1945,
    "Longitude": -97.6699,
    "Region": "South",
    "Country": "United States",
    "ICAO Code": "KAUS",
    "Flight Type": "Domestic",
    "Nonstop": true,
    "State Abbreviation": "TX"
  },
  {
    "IATA Code": "BDL",
    "Airport Name": "Bradley International Airport",
    "City": "Hartford / Springfield",
    "State": "Connecticut",
    "Airport Address": "Schoephoester Rd, Windsor Locks, CT 06096",
    "Latitude": 41.9389,
    "Longitude": -72.6832,
    "Region": "Northeast",
    "Country": "United States",
    "ICAO Code": "KBDL",
    "Flight Type": "Domestic",
    "Nonstop": true,
    "State Abbreviation": "CT"
  },
  {
    "IATA Code": "BJX",
    "Airport Name": "Guanajuato International Airport",
    "City": "Silao (León/Guanajuato)",
    "State": "Guanajuato",
    "Airport Address": "Carr. Silao - León Km 5.5, 36270 Silao, Gto., Mexico",
    "Latitude": 20.9934,
    "Longitude": -101.481,
    "Region": null,
    "Country": "Mexico",
    "ICAO Code": "MMSD",
    "Flight Type": "International",
    "Nonstop": false,
    "State Abbreviation": null
  },
  {
    "IATA Code": "BNA",
    "Airport Name": "Nashville International Airport",
    "City": "Nashville",
    "State": "Tennessee",
    "Airport Address": "1 Terminal Dr, Nashville, TN 37214",
    "Latitude": 36.1264,
    "Longitude": -86.6811,
    "Region": "South",
    "Country": "United States",
    "ICAO Code": "KBNA",
    "Flight Type": "Domestic",
    "Nonstop": true,
    "State Abbreviation": "TN"
  },
  {
    "IATA Code": "BOI",
    "Airport Name": "Boise Airport",
    "City": "Boise",
    "State": "Idaho",
    "Airport Address": "3201 W Airport Way, Boise, ID 83705",
    "Latitude": 43.5658,
    "Longitude": -116.2223,
    "Region": "West",
    "Country": "United States",
    "ICAO Code": "KBOI",
    "Flight Type": "Domestic",
    "Nonstop": false,
    "State Abbreviation": "ID"
  },
  {
    "IATA Code": "BOS",
    "Airport Name": "Logan International Airport",
    "City": "Boston",
    "State": "Massachusetts",
    "Airport Address": "1 Harborside Dr, Boston, MA 02128",
    "Latitude": 42.3643,
    "Longitude": -71.0052,
    "Region": "Northeast",
    "Country": "United States",
    "ICAO Code": "KBOS",
    "Flight Type": "Domestic",
    "Nonstop": true,
    "State Abbreviation": "MA"
  },
  {
    "IATA Code": "BQN",
    "Airport Name": "Rafael Hernández International Airport",
    "City": "Aguadilla",
    "State": "Puerto Rico",
    "Airport Address": "300 W. Tarmac Rd., Aguadilla, PR 00603",
    "Latitude": 18.4947,
    "Longitude": -67.1356,
    "Region": null,
    "Country": "United States",
    "ICAO Code": "TJBQ",
    "Flight Type": "Domestic",
    "Nonstop": false,
    "State Abbreviation": "PR"
  },
  {
    "IATA Code": "BTV",
    "Airport Name": "Burlington International Airport",
    "City": "Burlington",
    "State": "Vermont",
    "Airport Address": "1200 Airport Dr, South Burlington, VT 05403",
    "Latitude": 44.4719,
    "Longitude": -73.1532,
    "Region": "Northeast",
    "Country": "United States",
    "ICAO Code": "KBTV",
    "Flight Type": "Domestic",
    "Nonstop": false,
    "State Abbreviation": "VT"
  },
  {
    "IATA Code": "BUF",
    "Airport Name": "Buffalo Niagara International Airport",
    "City": "Buffalo",
    "State": "New York",
    "Airport Address": "4200 Genesee St, Cheektowaga, NY 14225",
    "Latitude": 42.9405,
    "Longitude": -78.7322,
    "Region": "Northeast",
    "Country": "United States",
    "ICAO Code": "KBUF",
    "Flight Type": "Domestic",
    "Nonstop": true,
    "State Abbreviation": "NY"
  },
  {
    "IATA Code": "BUR",
    "Airport Name": "Hollywood Burbank Airport",
    "City": "Burbank",
    "State": "California",
    "Airport Address": "2627 N Hollywood Way, Burbank, CA 91505",
    "Latitude": 34.2007,
    "Longitude": -118.3582,
    "Region": "West",
    "Country": "United States",
    "ICAO Code": "KBUR",
    "Flight Type": "Domestic",
    "Nonstop": false,
    "State Abbreviation": "CA"
  },
  {
    "IATA Code": "BWI",
    "Airport Name": "Baltimore/Washington Int'l Airport",
    "City": "Baltimore",
    "State": "Maryland",
    "Airport Address": "7050 Friendship Rd, Baltimore, MD 21240",
    "Latitude": 39.1774,
    "Longitude": -76.6684,
    "Region": "South",
    "Country": "United States",
    "ICAO Code": "KBWI",
    "Flight Type": "Domestic",
    "Nonstop": true,
    "State Abbreviation": "MD"
  },
  {
    "IATA Code": "CHS",
    "Airport Name": "Charleston International Airport",
    "City": "Charleston",
    "State": "South Carolina",
    "Airport Address": "5500 International Blvd, Charleston, SC 29418",
    "Latitude": 32.8986,
    "Longitude": -80.0401,
    "Region": "South",
    "Country": "United States",
    "ICAO Code": "KCHS",
    "Flight Type": "Domestic",
    "Nonstop": false,
    "State Abbreviation": "SC"
  },
  {
    "IATA Code": "CID",
    "Airport Name": "The Eastern Iowa Airport",
    "City": "Cedar Rapids",
    "State": "Iowa",
    "Airport Address": "2500 Wright Brothers Blvd SW, Cedar Rapids, IA 52404",
    "Latitude": 41.8841,
    "Longitude": -91.7161,
    "Region": "Midwest",
    "Country": "United States",
    "ICAO Code": "KCID",
    "Flight Type": "Domestic",
    "Nonstop": false,
    "State Abbreviation": "IA"
  },
  {
    "IATA Code": "CLE",
    "Airport Name": "Cleveland Hopkins International Airport",
    "City": "Cleveland",
    "State": "Ohio",
    "Airport Address": "5300 Riverside Dr, Cleveland, OH 44135",
    "Latitude": 41.4116,
    "Longitude": -81.8499,
    "Region": "Midwest",
    "Country": "United States",
    "ICAO Code": "KCLE",
    "Flight Type": "Domestic",
    "Nonstop": true,
    "State Abbreviation": "OH"
  },
  {
    "IATA Code": "CLT",
    "Airport Name": "Charlotte Douglas International Airport",
    "City": "Charlotte",
    "State": "North Carolina",
    "Airport Address": "5501 Josh Birmingham Pkwy, Charlotte, NC 28208",
    "Latitude": 35.2144,
    "Longitude": -80.9431,
    "Region": "South",
    "Country": "United States",
    "ICAO Code": "KCLT",
    "Flight Type": "Domestic",
    "Nonstop": true,
    "State Abbreviation": "NC"
  },
  {
    "IATA Code": "CMH",
    "Airport Name": "John Glenn Columbus Int'l Airport",
    "City": "Columbus",
    "State": "Ohio",
    "Airport Address": "4600 International Gateway, Columbus, OH 43219",
    "Latitude": 40.0031,
    "Longitude": -82.8916,
    "Region": "Midwest",
    "Country": "United States",
    "ICAO Code": "KCMH",
    "Flight Type": "Domestic",
    "Nonstop": true,
    "State Abbreviation": "OH"
  },
  {
    "IATA Code": "CRP",
    "Airport Name": "Corpus Christi International Airport",
    "City": "Corpus Christi",
    "State": "Texas",
    "Airport Address": "1000 International Blvd, Corpus Christi, TX 78406",
    "Latitude": 27.7709,
    "Longitude": -97.5029,
    "Region": "South",
    "Country": "United States",
    "ICAO Code": "KCRP",
    "Flight Type": "Domestic",
    "Nonstop": false,
    "State Abbreviation": "TX"
  },
  {
    "IATA Code": "CUN",
    "Airport Name": "Cancún International Airport",
    "City": "Cancún",
    "State": "Quintana Roo",
    "Airport Address": "Carr. Cancún - Chetumal Km 22, 77565 Cancún, Q.R., Mexico",
    "Latitude": 21.0366,
    "Longitude": -86.877,
    "Region": null,
    "Country": "Mexico",
    "ICAO Code": "MMUN",
    "Flight Type": "International",
    "Nonstop": true,
    "State Abbreviation": null
  },
  {
    "IATA Code": "CUU",
    "Airport Name": "Gen. R. Fierro Villalobos Int'l Airport",
    "City": "Chihuahua",
    "State": "Chihuahua",
    "Airport Address": "Carretera Chihuahua a Ojinaga KM 14.5, Chihuahua, Chih., Mexico",
    "Latitude": 28.6782,
    "Longitude": -105.957,
    "Region": null,
    "Country": "Mexico",
    "ICAO Code": "MMCU",
    "Flight Type": "International",
    "Nonstop": false,
    "State Abbreviation": null
  },
  {
    "IATA Code": "CVG",
    "Airport Name": "Cincinnati/Northern Kentucky Int'l Airport",
    "City": "Hebron (Cincinnati)",
    "State": "Kentucky",
    "Airport Address": "3087 Terminal Dr, Hebron, KY 41048",
    "Latitude": 39.0488,
    "Longitude": -84.6672,
    "Region": "South",
    "Country": "United States",
    "ICAO Code": "KCVG",
    "Flight Type": "Domestic",
    "Nonstop": true,
    "State Abbreviation": "KY"
  },
  {
    "IATA Code": "DCA",
    "Airport Name": "Ronald Reagan Washington National Airport",
    "City": "Washington",
    "State": "District of Columbia",
    "Airport Address": "2401 S Smith Blvd, Arlington, VA 22202",
    "Latitude": 38.851,
    "Longitude": -77.0401,
    "Region": "South",
    "Country": "United States",
    "ICAO Code": "KDCA",
    "Flight Type": "Domestic",
    "Nonstop": true,
    "State Abbreviation": "DC"
  },
  {
    "IATA Code": "DEN",
    "Airport Name": "Denver International Airport",
    "City": "Denver",
    "State": "Colorado",
    "Airport Address": "8500 Peña Blvd, Denver, CO 80249",
    "Latitude": 39.8561,
    "Longitude": -104.6737,
    "Region": "West",
    "Country": "United States",
    "ICAO Code": "KDEN",
    "Flight Type": "Domestic",
    "Nonstop": true,
    "State Abbreviation": "CO"
  },
  {
    "IATA Code": "DFW",
    "Airport Name": "Dallas/Fort Worth Int'l Airport",
    "City": "Dallas / Fort Worth",
    "State": "Texas",
    "Airport Address": "2400 Aviation Dr, DFW Airport, TX 75261",
    "Latitude": 32.8998,
    "Longitude": -97.0403,
    "Region": "South",
    "Country": "United States",
    "ICAO Code": "KDFW",
    "Flight Type": "Domestic",
    "Nonstop": true,
    "State Abbreviation": "TX"
  },
  {
    "IATA Code": "DGO",
    "Airport Name": "Durango International Airport",
    "City": "Durango",
    "State": "Durango",
    "Airport Address": "Carr. Durango-Mezquital Km 14.5, 34246 Dgo., Mexico",
    "Latitude": 24.1326,
    "Longitude": -104.524,
    "Region": null,
    "Country": "Mexico",
    "ICAO Code": "MMDO",
    "Flight Type": "International",
    "Nonstop": false,
    "State Abbreviation": null
  },
  {
    "IATA Code": "DSM",
    "Airport Name": "Des Moines International Airport",
    "City": "Des Moines",
    "State": "Iowa",
    "Airport Address": "5800 Fleur Dr, Des Moines, IA 50321",
    "Latitude": 41.5332,
    "Longitude": -93.6633,
    "Region": "Midwest",
    "Country": "United States",
    "ICAO Code": "KDSM",
    "Flight Type": "Domestic",
    "Nonstop": true,
    "State Abbreviation": "IA"
  },
  {
    "IATA Code": "DTW",
    "Airport Name": "Detroit Metropolitan Wayne County Airport",
    "City": "Detroit",
    "State": "Michigan",
    "Airport Address": "1 Detroit Metro Airport, Detroit, MI 48242",
    "Latitude": 42.2163,
    "Longitude": -83.3537,
    "Region": "Midwest",
    "Country": "United States",
    "ICAO Code": "KDTW",
    "Flight Type": "Domestic",
    "Nonstop": true,
    "State Abbreviation": "MI"
  },
  {
    "IATA Code": "ELP",
    "Airport Name": "El Paso International Airport",
    "City": "El Paso",
    "State": "Texas",
    "Airport Address": "6701 Convair Rd, El Paso, TX 79925",
    "Latitude": 31.8078,
    "Longitude": -106.3761,
    "Region": "South",
    "Country": "United States",
    "ICAO Code": "KELP",
    "Flight Type": "Domestic",
    "Nonstop": false,
    "State Abbreviation": "TX"
  },
  {
    "IATA Code": "EWR",
    "Airport Name": "Newark Liberty International Airport",
    "City": "Newark",
    "State": "New Jersey",
    "Airport Address": "3 Brewster Rd, Newark, NJ 07114",
    "Latitude": 40.6925,
    "Longitude": -74.1687,
    "Region": "Northeast",
    "Country": "United States",
    "ICAO Code": "KEWR",
    "Flight Type": "Domestic",
    "Nonstop": true,
    "State Abbreviation": "NJ"
  },
  {
    "IATA Code": "FAR",
    "Airport Name": "Hector International Airport",
    "City": "Fargo",
    "State": "North Dakota",
    "Airport Address": "2801 32nd Ave N, Fargo, ND 58102",
    "Latitude": 46.9208,
    "Longitude": -96.7802,
    "Region": "Midwest",
    "Country": "United States",
    "ICAO Code": "KFAR",
    "Flight Type": "Domestic",
    "Nonstop": false,
    "State Abbreviation": "ND"
  },
  {
    "IATA Code": "FLL",
    "Airport Name": "Fort Lauderdale–Hollywood Int'l Airport",
    "City": "Fort Lauderdale",
    "State": "Florida",
    "Airport Address": "100 Terminal Dr, Fort Lauderdale, FL 33315",
    "Latitude": 26.0742,
    "Longitude": -80.1498,
    "Region": "South",
    "Country": "United States",
    "ICAO Code": "KFLL",
    "Flight Type": "Domestic",
    "Nonstop": true,
    "State Abbreviation": "FL"
  },
  {
    "IATA Code": "FSD",
    "Airport Name": "Sioux Falls Regional Airport",
    "City": "Sioux Falls",
    "State": "South Dakota",
    "Airport Address": "2801 N Jaycee Ln, Sioux Falls, SD 57104",
    "Latitude": 43.5828,
    "Longitude": -96.741,
    "Region": "Midwest",
    "Country": "United States",
    "ICAO Code": "KFSD",
    "Flight Type": "Domestic",
    "Nonstop": false,
    "State Abbreviation": "SD"
  },
  {
    "IATA Code": "GDL",
    "Airport Name": "Guadalajara International Airport",
    "City": "Guadalajara",
    "State": "Jalisco",
    "Airport Address": "Carr. Guadalajara a Chapala Km 17.5, 45659 Jal., Mexico",
    "Latitude": 20.5218,
    "Longitude": -103.311,
    "Region": null,
    "Country": "Mexico",
    "ICAO Code": "MMGL",
    "Flight Type": "International",
    "Nonstop": true,
    "State Abbreviation": null
  },
  {
    "IATA Code": "GEG",
    "Airport Name": "Spokane International Airport",
    "City": "Spokane",
    "State": "Washington",
    "Airport Address": "9000 W Airport Dr, Spokane, WA 99224",
    "Latitude": 47.618,
    "Longitude": -117.5338,
    "Region": "West",
    "Country": "United States",
    "ICAO Code": "KGEG",
    "Flight Type": "Domestic",
    "Nonstop": false,
    "State Abbreviation": "WA"
  },
  {
    "IATA Code": "GRR",
    "Airport Name": "Gerald R. Ford International Airport",
    "City": "Grand Rapids",
    "State": "Michigan",
    "Airport Address": "5500 44th St SE, Grand Rapids, MI 49512",
    "Latitude": 42.8808,
    "Longitude": -85.5222,
    "Region": "Midwest",
    "Country": "United States",
    "ICAO Code": "KGRR",
    "Flight Type": "Domestic",
    "Nonstop": false,
    "State Abbreviation": "MI"
  },
  {
    "IATA Code": "GUA",
    "Airport Name": "La Aurora International Airport",
    "City": "Guatemala City",
    "State": "Guatemala",
    "Airport Address": "9 Avenida 14-75, Zona 13, Guatemala City, Guatemala",
    "Latitude": 14.5833,
    "Longitude": -90.5276,
    "Region": null,
    "Country": "Guatemala",
    "ICAO Code": "MGGT",
    "Flight Type": "International",
    "Nonstop": true,
    "State Abbreviation": null
  },
  {
    "IATA Code": "HUX",
    "Airport Name": "Bahías de Huatulco International Airport",
    "City": "Huatulco",
    "State": "Oaxaca",
    "Airport Address": "Carretera Costera Km. 20. S/N, Santa María Huatulco, Oax., Mexico",
    "Latitude": 15.7758,
    "Longitude": -96.2625,
    "Region": null,
    "Country": "Mexico",
    "ICAO Code": "MMBT",
    "Flight Type": "International",
    "Nonstop": false,
    "State Abbreviation": null
  },
  {
    "IATA Code": "IAD",
    "Airport Name": "Washington Dulles International Airport",
    "City": "Dulles (Washington, D.C.)",
    "State": "Virginia",
    "Airport Address": "1 Saarinen Cir, Dulles, VA 20166",
    "Latitude": 38.9531,
    "Longitude": -77.4565,
    "Region": "South",
    "Country": "United States",
    "ICAO Code": "KIAD",
    "Flight Type": "Domestic",
    "Nonstop": true,
    "State Abbreviation": "VA"
  },
  {
    "IATA Code": "IAH",
    "Airport Name": "George Bush Intercontinental Airport",
    "City": "Houston",
    "State": "Texas",
    "Airport Address": "2800 N Terminal Rd, Houston, TX 77032",
    "Latitude": 29.9844,
    "Longitude": -95.3414,
    "Region": "South",
    "Country": "United States",
    "ICAO Code": "KIAH",
    "Flight Type": "Domestic",
    "Nonstop": true,
    "State Abbreviation": "TX"
  },
  {
    "IATA Code": "IND",
    "Airport Name": "Indianapolis International Airport",
    "City": "Indianapolis",
    "State": "Indiana",
    "Airport Address": "7800 Col. H. Weir Cook Memorial Dr, Indianapolis, IN 46241",
    "Latitude": 39.7173,
    "Longitude": -86.2952,
    "Region": "Midwest",
    "Country": "United States",
    "ICAO Code": "KIND",
    "Flight Type": "Domestic",
    "Nonstop": true,
    "State Abbreviation": "IN"
  },
  {
    "IATA Code": "ISP",
    "Airport Name": "Long Island MacArthur Airport",
    "City": "Islip",
    "State": "New York",
    "Airport Address": "100 Arrival Ave, Ronkonkoma, NY 11779",
    "Latitude": 40.7951,
    "Longitude": -73.1002,
    "Region": "Northeast",
    "Country": "United States",
    "ICAO Code": "KISP",
    "Flight Type": "Domestic",
    "Nonstop": true,
    "State Abbreviation": "NY"
  },
  {
    "IATA Code": "JAX",
    "Airport Name": "Jacksonville International Airport",
    "City": "Jacksonville",
    "State": "Florida",
    "Airport Address": "2400 Yankee Clipper Dr, Jacksonville, FL 32218",
    "Latitude": 30.494,
    "Longitude": -81.6879,
    "Region": "South",
    "Country": "United States",
    "ICAO Code": "KJAX",
    "Flight Type": "Domestic",
    "Nonstop": true,
    "State Abbreviation": "FL"
  },
  {
    "IATA Code": "JFK",
    "Airport Name": "John F. Kennedy International Airport",
    "City": "New York",
    "State": "New York",
    "Airport Address": "Queens, NY 11430",
    "Latitude": 40.6413,
    "Longitude": -73.7781,
    "Region": "Northeast",
    "Country": "United States",
    "ICAO Code": "KJFK",
    "Flight Type": "Domestic",
    "Nonstop": true,
    "State Abbreviation": "NY"
  },
  {
    "IATA Code": "LAS",
    "Airport Name": "Harry Reid International Airport",
    "City": "Las Vegas",
    "State": "Nevada",
    "Airport Address": "5757 Wayne Newton Blvd, Las Vegas, NV 89119",
    "Latitude": 36.084,
    "Longitude": -115.1537,
    "Region": "West",
    "Country": "United States",
    "ICAO Code": "KLAS",
    "Flight Type": "Domestic",
    "Nonstop": true,
    "State Abbreviation": "NV"
  },
  {
    "IATA Code": "LAX",
    "Airport Name": "Los Angeles International Airport",
    "City": "Los Angeles",
    "State": "California",
    "Airport Address": "1 World Way, Los Angeles, CA 90045",
    "Latitude": 33.9416,
    "Longitude": -118.4085,
    "Region": "West",
    "Country": "United States",
    "ICAO Code": "KLAX",
    "Flight Type": "Domestic",
    "Nonstop": true,
    "State Abbreviation": "CA"
  },
  {
    "IATA Code": "LGA",
    "Airport Name": "LaGuardia Airport",
    "City": "New York",
    "State": "New York",
    "Airport Address": "Flushing, NY 11371",
    "Latitude": 40.7772,
    "Longitude": -73.8726,
    "Region": "Northeast",
    "Country": "United States",
    "ICAO Code": "KLGA",
    "Flight Type": "Domestic",
    "Nonstop": true,
    "State Abbreviation": "NY"
  },
  {
    "IATA Code": "LIT",
    "Airport Name": "Bill and Hillary Clinton National Airport",
    "City": "Little Rock",
    "State": "Arkansas",
    "Airport Address": "1 Airport Rd, Little Rock, AR 72202",
    "Latitude": 34.7297,
    "Longitude": -92.2272,
    "Region": "South",
    "Country": "United States",
    "ICAO Code": "KLIT",
    "Flight Type": "Domestic",
    "Nonstop": false,
    "State Abbreviation": "AR"
  },
  {
    "IATA Code": "MBJ",
    "Airport Name": "Sangster International Airport",
    "City": "Montego Bay",
    "State": "Saint James",
    "Airport Address": "Montego Bay, St James, Jamaica",
    "Latitude": 18.5028,
    "Longitude": -77.9133,
    "Region": null,
    "Country": "Jamaica",
    "ICAO Code": "MKJS",
    "Flight Type": "International",
    "Nonstop": true,
    "State Abbreviation": null
  },
  {
    "IATA Code": "MCI",
    "Airport Name": "Kansas City International Airport",
    "City": "Kansas City",
    "State": "Missouri",
    "Airport Address": "601 Brasilia Ave, Kansas City, MO 64153",
    "Latitude": 39.2976,
    "Longitude": -94.7139,
    "Region": "Midwest",
    "Country": "United States",
    "ICAO Code": "KMCI",
    "Flight Type": "Domestic",
    "Nonstop": true,
    "State Abbreviation": "MO"
  },
  {
    "IATA Code": "MCO",
    "Airport Name": "Orlando International Airport",
    "City": "Orlando",
    "State": "Florida",
    "Airport Address": "1 Jeff Fuqua Blvd, Orlando, FL 32827",
    "Latitude": 28.4294,
    "Longitude": -81.3089,
    "Region": "South",
    "Country": "United States",
    "ICAO Code": "KMCO",
    "Flight Type": "Domestic",
    "Nonstop": true,
    "State Abbreviation": "FL"
  },
  {
    "IATA Code": "MDT",
    "Airport Name": "Harrisburg International Airport",
    "City": "Harrisburg",
    "State": "Pennsylvania",
    "Airport Address": "208 Airport Dr, Middletown, PA 17057",
    "Latitude": 40.1932,
    "Longitude": -76.7533,
    "Region": "Northeast",
    "Country": "United States",
    "ICAO Code": "KMDT",
    "Flight Type": "Domestic",
    "Nonstop": false,
    "State Abbreviation": "PA"
  },
  {
    "IATA Code": "MDW",
    "Airport Name": "Chicago Midway International Airport",
    "City": "Chicago",
    "State": "Illinois",
    "Airport Address": "5700 S Cicero Ave, Chicago, IL 60638",
    "Latitude": 41.7858,
    "Longitude": -87.7524,
    "Region": "Midwest",
    "Country": "United States",
    "ICAO Code": "KMDW",
    "Flight Type": "Domestic",
    "Nonstop": true,
    "State Abbreviation": "IL"
  },
  {
    "IATA Code": "MEM",
    "Airport Name": "Memphis International Airport",
    "City": "Memphis",
    "State": "Tennessee",
    "Airport Address": "2491 Winchester Rd, Memphis, TN 38116",
    "Latitude": 35.0423,
    "Longitude": -89.9766,
    "Region": "South",
    "Country": "United States",
    "ICAO Code": "KMEM",
    "Flight Type": "Domestic",
    "Nonstop": true,
    "State Abbreviation": "TN"
  },
  {
    "IATA Code": "MEX",
    "Airport Name": "Mexico City International Airport",
    "City": "Mexico City",
    "State": "Mexico City",
    "Airport Address": "Av. Capitán Carlos León S/N, CDMX, Mexico",
    "Latitude": 19.4363,
    "Longitude": -99.0721,
    "Region": null,
    "Country": "Mexico",
    "ICAO Code": "MMMX",
    "Flight Type": "International",
    "Nonstop": true,
    "State Abbreviation": null
  },
  {
    "IATA Code": "MIA",
    "Airport Name": "Miami International Airport",
    "City": "Miami",
    "State": "Florida",
    "Airport Address": "2100 NW 42nd Ave, Miami, FL 33142",
    "Latitude": 25.7959,
    "Longitude": -80.2871,
    "Region": "South",
    "Country": "United States",
    "ICAO Code": "KMIA",
    "Flight Type": "Domestic",
    "Nonstop": true,
    "State Abbreviation": "FL"
  },
  {
    "IATA Code": "MKE",
    "Airport Name": "Milwaukee Mitchell International Airport",
    "City": "Milwaukee",
    "State": "Wisconsin",
    "Airport Address": "5300 S Howell Ave, Milwaukee, WI 53207",
    "Latitude": 42.9472,
    "Longitude": -87.8966,
    "Region": "Midwest",
    "Country": "United States",
    "ICAO Code": "KMKE",
    "Flight Type": "Domestic",
    "Nonstop": true,
    "State Abbreviation": "WI"
  },
  {
    "IATA Code": "MLM",
    "Airport Name": "Gen. Francisco Mujica Int'l Airport",
    "City": "Morelia",
    "State": "Michoacán",
    "Airport Address": "Carr. Morelia-Zinapécuaro Km 27, Mich., Mexico",
    "Latitude": 19.8398,
    "Longitude": -101.0371,
    "Region": null,
    "Country": "Mexico",
    "ICAO Code": "MMMA",
    "Flight Type": "International",
    "Nonstop": false,
    "State Abbreviation": null
  },
  {
    "IATA Code": "MSN",
    "Airport Name": "Dane County Regional Airport",
    "City": "Madison",
    "State": "Wisconsin",
    "Airport Address": "4000 International Ln, Madison, WI 53704",
    "Latitude": 43.1368,
    "Longitude": -89.3375,
    "Region": "Midwest",
    "Country": "United States",
    "ICAO Code": "KMSN",
    "Flight Type": "Domestic",
    "Nonstop": false,
    "State Abbreviation": "WI"
  },
  {
    "IATA Code": "MSO",
    "Airport Name": "Missoula Montana Airport",
    "City": "Missoula",
    "State": "Montana",
    "Airport Address": "5225 W Broadway St, Missoula, MT 59808",
    "Latitude": 46.9168,
    "Longitude": -114.095,
    "Region": "West",
    "Country": "United States",
    "ICAO Code": "KMSO",
    "Flight Type": "Domestic",
    "Nonstop": false,
    "State Abbreviation": "MT"
  },
  {
    "IATA Code": "MSP",
    "Airport Name": "Minneapolis–Saint Paul Int'l Airport",
    "City": "Minneapolis / St. Paul",
    "State": "Minnesota",
    "Airport Address": "4300 Glumack Dr, St Paul, MN 55111",
    "Latitude": 44.8819,
    "Longitude": -93.2217,
    "Region": "Midwest",
    "Country": "United States",
    "ICAO Code": "KMSP",
    "Flight Type": "Domestic",
    "Nonstop": true,
    "State Abbreviation": "MN"
  },
  {
    "IATA Code": "MSY",
    "Airport Name": "Louis Armstrong New Orleans Int'l Airport",
    "City": "New Orleans",
    "State": "Louisiana",
    "Airport Address": "900 Airline Dr, Kenner, LA 70062",
    "Latitude": 29.9935,
    "Longitude": -90.258,
    "Region": "South",
    "Country": "United States",
    "ICAO Code": "KMSY",
    "Flight Type": "Domestic",
    "Nonstop": true,
    "State Abbreviation": "LA"
  },
  {
    "IATA Code": "MTY",
    "Airport Name": "Monterrey International Airport",
    "City": "Monterrey",
    "State": "Nuevo León",
    "Airport Address": "Carr. Miguel Alemán Km 24, 66600 Apodaca, N.L., Mexico",
    "Latitude": 25.7766,
    "Longitude": -100.1866,
    "Region": null,
    "Country": "Mexico",
    "ICAO Code": "MMMY",
    "Flight Type": "International",
    "Nonstop": false,
    "State Abbreviation": null
  },
  {
    "IATA Code": "MYR",
    "Airport Name": "Myrtle Beach International Airport",
    "City": "Myrtle Beach",
    "State": "South Carolina",
    "Airport Address": "1100 Jetport Rd, Myrtle Beach, SC 29577",
    "Latitude": 33.6796,
    "Longitude": -78.9284,
    "Region": "South",
    "Country": "United States",
    "ICAO Code": "KMYR",
    "Flight Type": "Domestic",
    "Nonstop": true,
    "State Abbreviation": "SC"
  },
  {
    "IATA Code": "NAS",
    "Airport Name": "Lynden Pindling International Airport",
    "City": "Nassau",
    "State": "New Providence",
    "Airport Address": "John F Kennedy Dr, Nassau, Bahamas",
    "Latitude": 25.0381,
    "Longitude": -77.4682,
    "Region": null,
    "Country": "Bahamas",
    "ICAO Code": "MYNN",
    "Flight Type": "International",
    "Nonstop": true,
    "State Abbreviation": null
  },
  {
    "IATA Code": "NLU",
    "Airport Name": "Felipe Ángeles International Airport",
    "City": "Zumpango (Mexico City)",
    "State": "México",
    "Airport Address": "Carretera Federal México-Pachuca, Santa Lucía, Méx., Mexico",
    "Latitude": 19.7431,
    "Longitude": -99.0069,
    "Region": null,
    "Country": "Mexico",
    "ICAO Code": "MMSM",
    "Flight Type": "International",
    "Nonstop": false,
    "State Abbreviation": null
  },
  {
    "IATA Code": "OAX",
    "Airport Name": "Xoxocotlán International Airport",
    "City": "Oaxaca",
    "State": "Oaxaca",
    "Airport Address": "Carr. Federal 175, 71230 Oaxaca, Oax., Mexico",
    "Latitude": 16.9942,
    "Longitude": -96.7214,
    "Region": null,
    "Country": "Mexico",
    "ICAO Code": "MMOX",
    "Flight Type": "International",
    "Nonstop": false,
    "State Abbreviation": null
  },
  {
    "IATA Code": "OKC",
    "Airport Name": "Will Rogers World Airport",
    "City": "Oklahoma City",
    "State": "Oklahoma",
    "Airport Address": "7100 Terminal Dr, Oklahoma City, OK 73159",
    "Latitude": 35.3942,
    "Longitude": -97.6007,
    "Region": "South",
    "Country": "United States",
    "ICAO Code": "KOKC",
    "Flight Type": "Domestic",
    "Nonstop": true,
    "State Abbreviation": "OK"
  },
  {
    "IATA Code": "OMA",
    "Airport Name": "Eppley Airfield",
    "City": "Omaha",
    "State": "Nebraska",
    "Airport Address": "4501 Abbott Dr, Omaha, NE 68110",
    "Latitude": 41.3021,
    "Longitude": -95.8943,
    "Region": "Midwest",
    "Country": "United States",
    "ICAO Code": "KOMA",
    "Flight Type": "Domestic",
    "Nonstop": true,
    "State Abbreviation": "NE"
  },
  {
    "IATA Code": "ONT",
    "Airport Name": "Ontario International Airport",
    "City": "Ontario",
    "State": "California",
    "Airport Address": "2900 E Airport Dr, Ontario, CA 91761",
    "Latitude": 34.056,
    "Longitude": -117.6,
    "Region": "West",
    "Country": "United States",
    "ICAO Code": "KONT",
    "Flight Type": "Domestic",
    "Nonstop": true,
    "State Abbreviation": "CA"
  },
  {
    "IATA Code": "ORD",
    "Airport Name": "O'Hare International Airport",
    "City": "Chicago",
    "State": "Illinois",
    "Airport Address": "10000 W O'Hare Ave, Chicago, IL 60666",
    "Latitude": 41.9742,
    "Longitude": -87.9073,
    "Region": "Midwest",
    "Country": "United States",
    "ICAO Code": "KORD",
    "Flight Type": "Domestic",
    "Nonstop": true,
    "State Abbreviation": "IL"
  },
  {
    "IATA Code": "ORF",
    "Airport Name": "Norfolk International Airport",
    "City": "Norfolk",
    "State": "Virginia",
    "Airport Address": "2200 Norview Ave, Norfolk, VA 23518",
    "Latitude": 36.8946,
    "Longitude": -76.2023,
    "Region": "South",
    "Country": "United States",
    "ICAO Code": "KORF",
    "Flight Type": "Domestic",
    "Nonstop": true,
    "State Abbreviation": "VA"
  },
  {
    "IATA Code": "PAE",
    "Airport Name": "Snohomish County Airport (Paine Field)",
    "City": "Everett (Seattle)",
    "State": "Washington",
    "Airport Address": "3220 100th St SW, Everett, WA 98204",
    "Latitude": 47.9079,
    "Longitude": -122.2818,
    "Region": "West",
    "Country": "United States",
    "ICAO Code": "KPAE",
    "Flight Type": "Domestic",
    "Nonstop": false,
    "State Abbreviation": "WA"
  },
  {
    "IATA Code": "PBI",
    "Airport Name": "Palm Beach International Airport",
    "City": "West Palm Beach",
    "State": "Florida",
    "Airport Address": "1000 James L Turnage Blvd, West Palm Beach, FL 33415",
    "Latitude": 26.6832,
    "Longitude": -80.0955,
    "Region": "South",
    "Country": "United States",
    "ICAO Code": "KPBI",
    "Flight Type": "Domestic",
    "Nonstop": true,
    "State Abbreviation": "FL"
  },
  {
    "IATA Code": "PDX",
    "Airport Name": "Portland International Airport",
    "City": "Portland",
    "State": "Oregon",
    "Airport Address": "7000 NE Airport Way, Portland, OR 97218",
    "Latitude": 45.5878,
    "Longitude": -122.5976,
    "Region": "West",
    "Country": "United States",
    "ICAO Code": "KPDX",
    "Flight Type": "Domestic",
    "Nonstop": true,
    "State Abbreviation": "OR"
  },
  {
    "IATA Code": "PHL",
    "Airport Name": "Philadelphia International Airport",
    "City": "Philadelphia",
    "State": "Pennsylvania",
    "Airport Address": "8000 Essington Ave, Philadelphia, PA 19153",
    "Latitude": 39.8745,
    "Longitude": -75.2424,
    "Region": "Northeast",
    "Country": "United States",
    "ICAO Code": "KPHL",
    "Flight Type": "Domestic",
    "Nonstop": true,
    "State Abbreviation": "PA"
  },
  {
    "IATA Code": "PHX",
    "Airport Name": "Phoenix Sky Harbor International Airport",
    "City": "Phoenix",
    "State": "Arizona",
    "Airport Address": "3400 E Sky Harbor Blvd, Phoenix, AZ 85034",
    "Latitude": 33.4343,
    "Longitude": -112.0103,
    "Region": "West",
    "Country": "United States",
    "ICAO Code": "KPHX",
    "Flight Type": "Domestic",
    "Nonstop": true,
    "State Abbreviation": "AZ"
  },
  {
    "IATA Code": "PIT",
    "Airport Name": "Pittsburgh International Airport",
    "City": "Pittsburgh",
    "State": "Pennsylvania",
    "Airport Address": "1000 Airport Blvd, Pittsburgh, PA 15231",
    "Latitude": 40.4844,
    "Longitude": -80.2163,
    "Region": "Northeast",
    "Country": "United States",
    "ICAO Code": "KPIT",
    "Flight Type": "Domestic",
    "Nonstop": true,
    "State Abbreviation": "PA"
  },
  {
    "IATA Code": "PLS",
    "Airport Name": "Providenciales International Airport",
    "City": "Providenciales",
    "State": "Turks and Caicos",
    "Airport Address": "Airport Rd, TKCA 1ZZ, Turks and Caicos",
    "Latitude": 21.7738,
    "Longitude": -72.2661,
    "Region": null,
    "Country": "United Kingdom",
    "ICAO Code": "MBPV",
    "Flight Type": "International",
    "Nonstop": true,
    "State Abbreviation": null
  },
  {
    "IATA Code": "PNS",
    "Airport Name": "Pensacola International Airport",
    "City": "Pensacola",
    "State": "Florida",
    "Airport Address": "2430 Airport Blvd, Pensacola, FL 32504",
    "Latitude": 30.4735,
    "Longitude": -87.1865,
    "Region": "South",
    "Country": "United States",
    "ICAO Code": "KPNS",
    "Flight Type": "Domestic",
    "Nonstop": false,
    "State Abbreviation": "FL"
  },
  {
    "IATA Code": "PSE",
    "Airport Name": "Mercedita International Airport",
    "City": "Ponce",
    "State": "Puerto Rico",
    "Airport Address": "PR-1, Ponce, PR 00715",
    "Latitude": 17.9786,
    "Longitude": -66.5658,
    "Region": null,
    "Country": "United States",
    "ICAO Code": "TJPS",
    "Flight Type": "Domestic",
    "Nonstop": false,
    "State Abbreviation": "PR"
  },
  {
    "IATA Code": "PSP",
    "Airport Name": "Palm Springs International Airport",
    "City": "Palm Springs",
    "State": "California",
    "Airport Address": "3400 E Tahquitz Canyon Way, Palm Springs, CA 92262",
    "Latitude": 33.8297,
    "Longitude": -116.5057,
    "Region": "West",
    "Country": "United States",
    "ICAO Code": "KPSP",
    "Flight Type": "Domestic",
    "Nonstop": true,
    "State Abbreviation": "CA"
  },
  {
    "IATA Code": "PUJ",
    "Airport Name": "Punta Cana International Airport",
    "City": "Punta Cana",
    "State": "La Altagracia",
    "Airport Address": "Blvd. Turístico del Este km 4.5, Punta Cana 23000, Dominican Republic",
    "Latitude": 18.5636,
    "Longitude": -68.3634,
    "Region": null,
    "Country": "Dominican Republic",
    "ICAO Code": "MDPC",
    "Flight Type": "International",
    "Nonstop": true,
    "State Abbreviation": null
  },
  {
    "IATA Code": "PVR",
    "Airport Name": "Lic. Gustavo Díaz Ordaz Int'l Airport",
    "City": "Puerto Vallarta",
    "State": "Jalisco",
    "Airport Address": "Carr. a Tepic Km 7.5, 48312 Puerto Vallarta, Jal., Mexico",
    "Latitude": 20.68,
    "Longitude": -105.2505,
    "Region": null,
    "Country": "Mexico",
    "ICAO Code": "MMPR",
    "Flight Type": "International",
    "Nonstop": true,
    "State Abbreviation": null
  },
  {
    "IATA Code": "QRO",
    "Airport Name": "Querétaro International Airport",
    "City": "Santiago de Querétaro",
    "State": "Querétaro",
    "Airport Address": "Carretera Estatal 200, Km 22, 200, Colón, Qro., Mexico",
    "Latitude": 20.6178,
    "Longitude": -100.1834,
    "Region": null,
    "Country": "Mexico",
    "ICAO Code": "MMQT",
    "Flight Type": "International",
    "Nonstop": false,
    "State Abbreviation": null
  },
  {
    "IATA Code": "RDU",
    "Airport Name": "Raleigh–Durham International Airport",
    "City": "Raleigh / Durham",
    "State": "North Carolina",
    "Airport Address": "2600 W Terminal Blvd, Morrisville, NC 27560",
    "Latitude": 35.8776,
    "Longitude": -78.7881,
    "Region": "South",
    "Country": "United States",
    "ICAO Code": "KRDU",
    "Flight Type": "Domestic",
    "Nonstop": true,
    "State Abbreviation": "NC"
  },
  {
    "IATA Code": "RIC",
    "Airport Name": "Richmond International Airport",
    "City": "Richmond",
    "State": "Virginia",
    "Airport Address": "1 Richard E Byrd Terminal Dr, Richmond, VA 23250",
    "Latitude": 37.5052,
    "Longitude": -77.3204,
    "Region": "South",
    "Country": "United States",
    "ICAO Code": "KRIC",
    "Flight Type": "Domestic",
    "Nonstop": true,
    "State Abbreviation": "VA"
  },
  {
    "IATA Code": "RNO",
    "Airport Name": "Reno–Tahoe International Airport",
    "City": "Reno",
    "State": "Nevada",
    "Airport Address": "2001 E Plumb Ln, Reno, NV 89502",
    "Latitude": 39.4975,
    "Longitude": -119.7686,
    "Region": "West",
    "Country": "United States",
    "ICAO Code": "KRNO",
    "Flight Type": "Domestic",
    "Nonstop": false,
    "State Abbreviation": "NV"
  },
  {
    "IATA Code": "RSW",
    "Airport Name": "Southwest Florida International Airport",
    "City": "Fort Myers",
    "State": "Florida",
    "Airport Address": "11000 Terminal Access Rd, Fort Myers, FL 33913",
    "Latitude": 26.5325,
    "Longitude": -81.7554,
    "Region": "South",
    "Country": "United States",
    "ICAO Code": "KRSW",
    "Flight Type": "Domestic",
    "Nonstop": true,
    "State Abbreviation": "FL"
  },
  {
    "IATA Code": "SAL",
    "Airport Name": "Monseñor Óscar Arnulfo Romero Int'l Airport",
    "City": "San Salvador",
    "State": "La Paz",
    "Airport Address": "Carr. a Comalapa, San Luis Talpa, El Salvador",
    "Latitude": 13.4402,
    "Longitude": -89.0558,
    "Region": null,
    "Country": "El Salvador",
    "ICAO Code": "MSLP",
    "Flight Type": "International",
    "Nonstop": true,
    "State Abbreviation": null
  },
  {
    "IATA Code": "SAN",
    "Airport Name": "San Diego International Airport",
    "City": "San Diego",
    "State": "California",
    "Airport Address": "3225 N Harbor Dr, San Diego, CA 92101",
    "Latitude": 32.7336,
    "Longitude": -117.1897,
    "Region": "West",
    "Country": "United States",
    "ICAO Code": "KSAN",
    "Flight Type": "Domestic",
    "Nonstop": true,
    "State Abbreviation": "CA"
  },
  {
    "IATA Code": "SAP",
    "Airport Name": "Ramón Villeda Morales Int'l Airport",
    "City": "San Pedro Sula",
    "State": "Cortés",
    "Airport Address": "Carretera a La Lima, La Lima, Honduras",
    "Latitude": 15.4526,
    "Longitude": -87.9238,
    "Region": null,
    "Country": "Honduras",
    "ICAO Code": "MHLM",
    "Flight Type": "International",
    "Nonstop": true,
    "State Abbreviation": null
  },
  {
    "IATA Code": "SAT",
    "Airport Name": "San Antonio International Airport",
    "City": "San Antonio",
    "State": "Texas",
    "Airport Address": "9800 Airport Blvd, San Antonio, TX 78216",
    "Latitude": 29.5367,
    "Longitude": -98.4697,
    "Region": "South",
    "Country": "United States",
    "ICAO Code": "KSAT",
    "Flight Type": "Domestic",
    "Nonstop": false,
    "State Abbreviation": "TX"
  },
  {
    "IATA Code": "SDQ",
    "Airport Name": "Las Américas International Airport",
    "City": "Santo Domingo",
    "State": "Santo Domingo",
    "Airport Address": "Autopista Las Américas, 11302, Dominican Republic",
    "Latitude": 18.429,
    "Longitude": -69.668,
    "Region": null,
    "Country": "Dominican Republic",
    "ICAO Code": "MDSD",
    "Flight Type": "International",
    "Nonstop": true,
    "State Abbreviation": null
  },
  {
    "IATA Code": "SEA",
    "Airport Name": "Seattle–Tacoma International Airport",
    "City": "Seattle / Tacoma",
    "State": "Washington",
    "Airport Address": "17801 International Blvd, Seattle, WA 98158",
    "Latitude": 47.449,
    "Longitude": -122.3088,
    "Region": "West",
    "Country": "United States",
    "ICAO Code": "KSEA",
    "Flight Type": "Domestic",
    "Nonstop": true,
    "State Abbreviation": "WA"
  },
  {
    "IATA Code": "SFO",
    "Airport Name": "San Francisco International Airport",
    "City": "San Francisco",
    "State": "California",
    "Airport Address": "San Francisco, CA 94128",
    "Latitude": 37.6213,
    "Longitude": -122.379,
    "Region": "West",
    "Country": "United States",
    "ICAO Code": "KSFO",
    "Flight Type": "Domestic",
    "Nonstop": true,
    "State Abbreviation": "CA"
  },
  {
    "IATA Code": "SJC",
    "Airport Name": "Norman Y. Mineta San José Int'l Airport",
    "City": "San Jose",
    "State": "California",
    "Airport Address": "1701 Airport Blvd, San Jose, CA 95110",
    "Latitude": 37.3626,
    "Longitude": -121.929,
    "Region": "West",
    "Country": "United States",
    "ICAO Code": "KSJC",
    "Flight Type": "Domestic",
    "Nonstop": true,
    "State Abbreviation": "CA"
  },
  {
    "IATA Code": "SJD",
    "Airport Name": "Los Cabos International Airport",
    "City": "San José del Cabo",
    "State": "Baja California Sur",
    "Airport Address": "Carretera Transpeninsular Km 43.5, B.C.S., Mexico",
    "Latitude": 23.1558,
    "Longitude": -109.7214,
    "Region": null,
    "Country": "Mexico",
    "ICAO Code": "MMSD",
    "Flight Type": "International",
    "Nonstop": true,
    "State Abbreviation": null
  },
  {
    "IATA Code": "SJO",
    "Airport Name": "Juan Santamaría International Airport",
    "City": "Alajuela (San José)",
    "State": "Alajuela",
    "Airport Address": "Alajuela, Provincia de Alajuela, Alajuela, Costa Rica",
    "Latitude": 9.9951,
    "Longitude": -84.2057,
    "Region": null,
    "Country": "Costa Rica",
    "ICAO Code": "MROC",
    "Flight Type": "International",
    "Nonstop": true,
    "State Abbreviation": null
  },
  {
    "IATA Code": "SJU",
    "Airport Name": "Luis Muñoz Marín International Airport",
    "City": "San Juan",
    "State": "Puerto Rico",
    "Airport Address": "10000 Autopista Sur, Carolina, PR 00979",
    "Latitude": 18.4395,
    "Longitude": -66.0021,
    "Region": null,
    "Country": "United States",
    "ICAO Code": "TJSJ",
    "Flight Type": "Domestic",
    "Nonstop": true,
    "State Abbreviation": "PR"
  },
  {
    "IATA Code": "SLC",
    "Airport Name": "Salt Lake City International Airport",
    "City": "Salt Lake City",
    "State": "Utah",
    "Airport Address": "776 N Terminal Dr, Salt Lake City, UT 84116",
    "Latitude": 40.7899,
    "Longitude": -111.9791,
    "Region": "West",
    "Country": "United States",
    "ICAO Code": "KSLC",
    "Flight Type": "Domestic",
    "Nonstop": true,
    "State Abbreviation": "UT"
  },
  {
    "IATA Code": "SMF",
    "Airport Name": "Sacramento International Airport",
    "City": "Sacramento",
    "State": "California",
    "Airport Address": "6900 Airport Blvd, Sacramento, CA 95837",
    "Latitude": 38.6954,
    "Longitude": -121.5907,
    "Region": "West",
    "Country": "United States",
    "ICAO Code": "KSMF",
    "Flight Type": "Domestic",
    "Nonstop": true,
    "State Abbreviation": "CA"
  },
  {
    "IATA Code": "SNA",
    "Airport Name": "John Wayne Airport",
    "City": "Santa Ana",
    "State": "California",
    "Airport Address": "18601 Airport Way, Santa Ana, CA 92707",
    "Latitude": 33.6757,
    "Longitude": -117.8682,
    "Region": "West",
    "Country": "United States",
    "ICAO Code": "KSNA",
    "Flight Type": "Domestic",
    "Nonstop": true,
    "State Abbreviation": "CA"
  },
  {
    "IATA Code": "SRQ",
    "Airport Name": "Sarasota–Bradenton International Airport",
    "City": "Sarasota / Bradenton",
    "State": "Florida",
    "Airport Address": "6000 Airport Cir, Sarasota, FL 34243",
    "Latitude": 27.3957,
    "Longitude": -82.5539,
    "Region": "South",
    "Country": "United States",
    "ICAO Code": "KSRQ",
    "Flight Type": "Domestic",
    "Nonstop": false,
    "State Abbreviation": "FL"
  },
  {
    "IATA Code": "STI",
    "Airport Name": "Cibao International Airport",
    "City": "Santiago de los Caballeros",
    "State": "Santiago",
    "Airport Address": "Santiago 51000, Dominican Republic",
    "Latitude": 19.3941,
    "Longitude": -70.5739,
    "Region": null,
    "Country": "Dominican Republic",
    "ICAO Code": "MDST",
    "Flight Type": "International",
    "Nonstop": true,
    "State Abbreviation": null
  },
  {
    "IATA Code": "STL",
    "Airport Name": "St. Louis Lambert International Airport",
    "City": "St. Louis",
    "State": "Missouri",
    "Airport Address": "10701 Lambert International Blvd, St. Louis, MO 63145",
    "Latitude": 38.7479,
    "Longitude": -90.3601,
    "Region": "Midwest",
    "Country": "United States",
    "ICAO Code": "KSTL",
    "Flight Type": "Domestic",
    "Nonstop": true,
    "State Abbreviation": "MO"
  },
  {
    "IATA Code": "SXM",
    "Airport Name": "Princess Juliana International Airport",
    "City": "Philipsburg",
    "State": "Sint Maarten",
    "Airport Address": "Airport Rd, Simpson Bay, Sint Maarten",
    "Latitude": 18.0436,
    "Longitude": -63.1089,
    "Region": null,
    "Country": "Sint Maarten",
    "ICAO Code": "TNCM",
    "Flight Type": "International",
    "Nonstop": false,
    "State Abbreviation": null
  },
  {
    "IATA Code": "SYR",
    "Airport Name": "Syracuse Hancock International Airport",
    "City": "Syracuse",
    "State": "New York",
    "Airport Address": "1000 Colonel Eileen Collins Blvd, Syracuse, NY 13212",
    "Latitude": 43.1112,
    "Longitude": -76.106,
    "Region": "Northeast",
    "Country": "United States",
    "ICAO Code": "KSYR",
    "Flight Type": "Domestic",
    "Nonstop": false,
    "State Abbreviation": "NY"
  },
  {
    "IATA Code": "TIJ",
    "Airport Name": "Tijuana International Airport",
    "City": "Tijuana",
    "State": "Baja California",
    "Airport Address": "Carr. Transpeninsular, 22400 Tijuana, B.C., Mexico",
    "Latitude": 32.5411,
    "Longitude": -116.969,
    "Region": null,
    "Country": "Mexico",
    "ICAO Code": "MMTJ",
    "Flight Type": "International",
    "Nonstop": false,
    "State Abbreviation": null
  },
  {
    "IATA Code": "TLC",
    "Airport Name": "Lic. Adolfo López Mateos Int'l Airport",
    "City": "Toluca",
    "State": "México",
    "Airport Address": "Ctra. Féd. Toluca-Naucalpan Km. 50, Toluca de Lerdo, Méx., Mexico",
    "Latitude": 19.3364,
    "Longitude": -99.5662,
    "Region": null,
    "Country": "Mexico",
    "ICAO Code": "MMTO",
    "Flight Type": "International",
    "Nonstop": false,
    "State Abbreviation": null
  },
  {
    "IATA Code": "UPN",
    "Airport Name": "Uruapan International Airport",
    "City": "Uruapan",
    "State": "Michoacán",
    "Airport Address": "Carr. Uruapan-Los Reyes Km 8, 60000 Uruapan, Mich., Mexico",
    "Latitude": 19.3953,
    "Longitude": -102.0436,
    "Region": null,
    "Country": "Mexico",
    "ICAO Code": "MMUP",
    "Flight Type": "International",
    "Nonstop": false,
    "State Abbreviation": null
  },
  {
    "IATA Code": "TPA",
    "Airport Name": "Tampa International Airport",
    "City": "Tampa",
    "State": "Florida",
    "Airport Address": "4100 George J. Bean Pkwy, Tampa, FL 33607",
    "Latitude": 27.9755,
    "Longitude": -82.5332,
    "Region": "South",
    "Country": "United States",
    "ICAO Code": "KTPA",
    "Flight Type": "Domestic",
    "Nonstop": true,
    "State Abbreviation": "FL"
  },
  {
    "IATA Code": "TTN",
    "Airport Name": "Trenton–Mercer Airport",
    "City": "Trenton",
    "State": "New Jersey",
    "Airport Address": "1100 Sam Weinroth Rd #1, Ewing Township, NJ 08628",
    "Latitude": 40.2766,
    "Longitude": -74.8139,
    "Region": "Northeast",
    "Country": "United States",
    "ICAO Code": "KTTN",
    "Flight Type": "Domestic",
    "Nonstop": false,
    "State Abbreviation": "NJ"
  },
  {
    "IATA Code": "TUL",
    "Airport Name": "Tulsa International Airport",
    "City": "Tulsa",
    "State": "Oklahoma",
    "Airport Address": "7777 Airport Dr, Tulsa, OK 74115",
    "Latitude": 36.1983,
    "Longitude": -95.8887,
    "Region": "South",
    "Country": "United States",
    "ICAO Code": "KTUL",
    "Flight Type": "Domestic",
    "Nonstop": true,
    "State Abbreviation": "OK"
  },
  {
    "IATA Code": "TUS",
    "Airport Name": "Tucson International Airport",
    "City": "Tucson",
    "State": "Arizona",
    "Airport Address": "7250 S Tucson Blvd, Tucson, AZ 85756",
    "Latitude": 32.1162,
    "Longitude": -110.941,
    "Region": "West",
    "Country": "United States",
    "ICAO Code": "KTUS",
    "Flight Type": "Domestic",
    "Nonstop": false,
    "State Abbreviation": "AZ"
  },
  {
    "IATA Code": "XNA",
    "Airport Name": "Northwest Arkansas National Airport",
    "City": "Bentonville / Fayetteville",
    "State": "Arkansas",
    "Airport Address": "1 Airport Blvd, Bentonville, AR 72713",
    "Latitude": 36.2818,
    "Longitude": -94.306,
    "Region": "South",
    "Country": "United States",
    "ICAO Code": "KXNA",
    "Flight Type": "Domestic",
    "Nonstop": false,
    "State Abbreviation": "AR"
  },
  {
    "IATA Code": "ZCL",
    "Airport Name": "Gen. Leobardo C. Ruiz Int'l Airport",
    "City": "Zacatecas",
    "State": "Zacatecas",
    "Airport Address": "Carr. Panamericana Zacatecas - Fresnillo Km 25, Morelos, Zac., Mexico",
    "Latitude": 22.8996,
    "Longitude": -102.686,
    "Region": null,
    "Country": "Mexico",
    "ICAO Code": "MMZC",
    "Flight Type": "International",
    "Nonstop": false,
    "State Abbreviation": null
  }
]